     2.11           OBSERVATION DATA    M (MIXED)           RINEX VERSION / TYPE
teqc  2019Feb25     RGS-CENTRE          20220111 11:14:34UTCPGM / RUN BY / DATE
Linux 2.4.21-27.ELsmp|Opteron|gcc -static|Linux 64|=+       COMMENT
BIT 2 OF LLI FLAGS DATA COLLECTED UNDER A/S CONDITION       COMMENT
NSK1                                                        MARKER NAME
                                                            MARKER NUMBER
Center of Geodesy   Rosreestr                               OBSERVER / AGENCY
AG4QU9R2N0G         TPS ODYSSEY_E       2.7.1b21 May,15,2019REC # / TYPE / VERS
05677               JAV_RINGANT_G3T JAVC                    ANT # / TYPE
   447669.4968  3638117.4139  5202279.7369                  APPROX POSITION XYZ
        0.1470        0.0000        0.0000                  ANTENNA: DELTA H/E/N
     1     1                                                WAVELENGTH FACT L1/2
     7    L1    L2    C1    P1    P2    S1    S2            # / TYPES OF OBSERV
    30.0000                                                 INTERVAL
    18                                                      LEAP SECONDS
 SNR is mapped to RINEX snr flag value [0-9]                COMMENT
  L1 & L2: min(max(int(snr_dBHz/6), 0), 9)                  COMMENT
pseudorange smoothing corrections not applied               COMMENT
  2022     1     4     8     1   30.0000000     GPS         TIME OF FIRST OBS
                                                            END OF HEADER
 22  1  4  8  1 30.0000000  0 13R09G16G09G04R08G26G07G27R06R17R18G20
                                G08
 104372363.522 8  81178536.757 8  19545590.959    19545590.969    19545592.879
        53.000          49.000
 108103722.970 8  84236681.19046  20571454.185    20571453.405    20571455.089
        49.000          41.0004
 109741272.962 8  85512694.04048  20883069.400    20883069.083    20883074.671
        51.000          52.0004
 110015364.120 8                  20935227.393
        49.000
 114259481.081 7  88868512.035 7  21337151.183    21337152.202    21337155.751
        43.000          44.000
 119198742.517 7  92882150.61344  22682766.569    22682765.967    22682769.017
        43.000          29.0004
 122417928.192 7  95390612.94145  23295358.379    23295358.215    23295372.763
        42.000          31.0004
 120546252.000 6  93932159.03946  22939188.464    22939188.020    22939192.946
        41.000          37.0004
 118892316.364 6  92471841.097    22280370.060    22280371.010    22280412.003
        36.000           1.000
 119720751.119 7  93116171.942 6  22372682.337    22372683.207    22372687.782
        43.000          40.000
 122072073.585 6  94944977.483 6  22868211.815    22868212.017    22868218.245
        41.000          37.000
 128365635.333 6 100025177.35142  24427166.493    24427164.730    24427167.914
        36.000          15.0004
 129763834.649 5                  24693237.010
        35.000
 22  1  4  8  2  0.0000000  0 14R09G16G09G04R08G26G07G27R06R17R18G20
                                G08R10
 104336703.884 8  81150801.475 8  19538913.112    19538913.238    19538914.872
        53.000          49.000
 108127215.126 8  84254986.75146  20575924.713    20575923.902    20575925.390
        49.000          41.0004
 109716629.234 8  85493491.12748  20878379.827    20878379.559    20878382.994
        51.000          52.0004
 110065265.994 8  85765156.69946  20944723.480    20944723.087    20944725.807
        48.000          39.0004
 114172745.499 7  88801051.049 7  21320953.534    21320954.767    21320957.969
        42.000          44.000
 119289268.614 7  92952690.41144  22699992.888    22699992.082    22699997.128
        42.000          29.0004
 122330650.100 7  95322604.09746  23278749.822    23278749.526    23278751.271
        42.000          38.0004
 120450426.104 6  93857489.67946  22920952.956    22920952.811    22920957.627
        41.000          36.0004
 119020605.776 6  92571621.203 3  22304413.152    22304412.272    22304420.652
        36.000          20.000
 119725961.361 7  93120224.368 6  22373656.639    22373656.165    22373661.427
        42.000          40.000
 121979818.451 6  94873223.498 6  22850928.765    22850929.040    22850935.065
        41.000          37.000
 128312934.011 5  99984111.38842  24417136.131    24417136.301    24417139.147
        35.000          15.0004
 129647331.558 5 101023913.63843  24671066.586    24671067.332    24671072.323
        35.000          22.0004
 120036789.816 7                  22518595.353
        42.000
 22  1  4  8  2 30.0000000  0 14R09G16G09G04R08G26G07G27R06R17R18G20
                                G08R10
 104301597.946 8  81123496.857 7  19532338.584    19532338.754    19532340.872
        53.000          47.000
 108151336.736 8  84273782.80046  20580515.049    20580514.129    20580515.493
        50.000          41.0004
 109692565.259 8  85474739.97148  20873800.537    20873800.269    20873803.674
        50.000          52.0004
 110115694.271 8  85804451.45146  20954319.612    20954319.488    20954321.954
        49.000          39.0004
 114086613.760 7  88734059.719 7  21304869.649    21304870.357    21304873.495
        43.000          43.000
 119380084.583 7  93023456.08244  22717273.957    22717273.902    22717279.186
        42.000          29.0004
 122243515.670 7  95254707.16746  23262168.026    23262168.191    23262170.165
        43.000          38.0004
 120354980.179 7  93783116.39046  22902789.738    22902789.867    22902794.630
        42.000          37.0004
 119149197.490 6  92671637.089 3  22328510.460    22328510.072    22328517.960
        36.000          20.000
 119732014.821 7  93124932.613 6  22374788.041    22374788.551    22374792.707
        43.000          40.000
 121888118.822 6  94801901.631 6  22833749.895    22833750.455    22833756.797
        41.000          37.000
 128260759.271 5  99943455.72742  24407207.572    24407207.921    24407210.356
        35.000          15.0004
 129530897.829 6 100933186.10243  24648912.159    24648910.901    24648916.750
        36.000          23.0004
 119926679.217 7  93276333.321    22497940.480    22497939.791    22497947.980
        42.000           1.000
 22  1  4  8  3  0.0000000  0 14R09G16G09G04R08G26G07G27R06R17R18G20
                                G08R10
 104266999.873 8  81096587.238 8  19525859.479    19525859.647    19525861.572
        53.000          48.000
 108176040.083 8  84293032.14846  20585215.746    20585215.052    20585216.267
        48.000          41.0004
 109669036.373 8  85456405.76548  20869323.126    20869322.894    20869326.268
        50.000          52.0004
 110166602.003 8  85844119.79646  20964006.967    20964006.773    20964009.493
        49.000          39.0004
 114001042.626 7  88667504.410 7  21288889.803    21288890.473    21288893.183
        43.000          44.000
 119471142.141 7  93094410.00244  22734601.413    22734601.584    22734606.307
        42.000          29.0004
 122156480.162 7  95186887.33146  23245606.727    23245606.543    23245608.025
        43.000          39.0004
 120259871.661 6  93709006.01746  22884691.357    22884690.906    22884695.776
        41.000          36.0004
 119278041.474 6  92771849.035 3  22352657.020    22352655.637    22352664.520
        36.000          20.000
 119738864.600 7  93130260.254 6  22376068.738    22376068.431    22376072.632
        42.000          40.000
 121796932.469 7  94730978.987 6  22816669.159    22816668.828    22816673.909
        42.000          37.000
 128209066.598 6  99903175.74142  24397372.946    24397370.149    24397375.304
        36.000          15.0004
 129414490.858 6 100842479.42944  24626760.370    24626759.560    24626764.969
        36.000          24.0004
 119816775.654 7  93190853.273 3  22477323.098    22477321.791    22477336.580
        43.000          20.000
 22  1  4  8  3 30.0000000  0 14R09G16G09G04R08G26G07G27R06R17R18G20
                                G08R10
 104232910.195 8  81070073.037 8  19519475.815    19519475.805    19519477.894
        53.000          50.000
 108201325.069 8  84312734.72646  20590027.660    20590026.653    20590027.933
        49.000          41.0004
 109646044.653 8  85438490.13448  20864947.924    20864947.734    20864951.110
        50.000          52.0004
 110217989.054 8  85884161.63746  20973785.530    20973785.381    20973788.012
        48.000          38.0004
 113916036.623 7  88601388.654 7  21273015.439    21273015.804    21273019.470
        42.000          45.000
 119562439.933 7  93165551.11444  22751974.712    22751975.176    22751980.126
        42.000          29.0004
 122069545.551 7  95119146.11946  23229064.059    23229063.269    23229064.987
        43.000          39.0004
 120165104.700 6  93635161.77546  22866657.762    22866657.211    22866662.112
        41.000          36.0004
 119407134.697 5  92872255.014 3  22376847.212    22376847.368    22376854.712
        35.000          20.000
 119746511.399 7  93136207.761 6  22377497.427    22377497.287    22377501.953
        43.000          40.000
 121706264.296 6  94660459.383 6  22799682.877    22799682.443    22799689.673
        41.000          37.000
 128157858.890 5  99863273.62742  24387626.804    24387626.272    24387628.878
        35.000          15.0004
 129298114.217 5 100751796.40943  24604612.958    24604613.444    24604619.015
        35.000          23.0004
 119707081.657 7  93105535.667 3  22456744.519    22456744.149    22456757.907
        43.000          20.000
 22  1  4  8  4  0.0000000  0 14R09G16G09G04R08G26G07G27R06R17R18G20
                                G08R10
 104199330.053 8  81043955.146 8  19513187.251    19513187.332    19513189.336
        53.000          49.000
 108227190.824 8  84332889.84346  20594949.411    20594948.663    20594950.216
        49.000          41.0004
 109623591.868 8  85420994.44748  20860675.600    20860675.187    20860678.472
        51.000          53.0004
 110269854.951 8  85924576.59246  20983655.036    20983655.021    20983657.796
        48.000          38.0004
 113831600.600 7  88535716.206 7  21257247.642    21257247.752    21257251.806
        42.000          45.000
 119653976.155 7  93236878.00844  22769394.220    22769393.758    22769399.178
        42.000          29.0004
 121982713.082 7  95051484.47346  23212540.530    23212539.776    23212541.716
        43.000          40.0004
 120070683.198 7  93561586.69446  22848688.854    22848689.464    22848693.972
        42.000          37.0004
 119536474.088 6  92972852.777 3  22401086.406    22401085.464    22401110.267
        36.000          20.000
 119754955.546 7  93142775.442 6  22379074.508    22379074.807    22379079.603
        42.000          40.000
 121616119.363 7  94590346.755 6  22782797.040    22782796.335    22782802.042
        42.000          37.000
 128107137.954 5  99823750.81642  24377974.352    24377973.295    24377979.130
        35.000          14.0004
 129181771.736 5 100661140.02944  24582474.956    24582474.150    24582479.726
        35.000          24.0004
 119597599.040 7  93020382.048 3  22436205.289    22436205.235    22436225.340
        43.000          20.000
 22  1  4  8  4 30.0000000  0 14R09G16G09G04R08G26G07G27R06R17R18G20
                                G08R10
 104166224.402 8  81018206.310 8  19506987.424    19506987.739    19506989.949
        52.000          49.000
 108253601.122 8  84353469.28446  20599975.125    20599974.426    20599975.910
        48.000          41.0004
 109601644.752 8  85403892.79348  20856499.199    20856498.841    20856502.136
        51.000          52.0004
 110322164.177 8  85965337.00846  20993609.279    20993609.047    20993611.702
        48.000          38.0004
 113747702.231 7  88470461.937 7  21241579.895    21241580.723    21241584.053
        43.000          44.000
 119745714.140 7  93308362.12144  22786851.576    22786850.568    22786856.338
        42.000          29.0004
 121895949.140 7  94983876.23746  23196029.708    23196028.978    23196030.463
        43.000          39.0004
 119976576.022 6  93488256.52746  22830780.844    22830781.349    22830785.989
        41.000          37.0004
 119666021.079 6  93073611.092 3  22425363.838    22425362.942    22425381.400
        36.000          20.000
 119764161.418 7  93149935.561 6  22380794.885    22380795.149    22380800.795
        42.000          41.000
 121526466.672 6  94520616.999 6  22766001.228    22766001.122    22766006.178
        41.000          37.000
 128056871.209 5  99784581.92642  24368409.994    24368408.534    24368412.821
        35.000          15.0004
 129065432.187 5 100570485.94844  24560334.702    24560334.804    24560341.395
        35.000          25.0004
 119488295.075 7  92935367.936 3  22415700.849    22415700.524    22415725.282
        43.000          20.000
 22  1  4  8  5  0.0000000  0 14R09G16G09G04R08G26G07G27R06R17R18G20
                                G08R10
 104133626.285 8  80992852.224 8  19500883.115    19500883.244    19500885.297
        53.000          51.000
 108280586.831 8  84374497.09046  20605110.361    20605109.687    20605111.108
        49.000          41.0004
 109580236.574 8  85387211.08948  20852425.596    20852424.977    20852428.352
        51.000          53.0004
 110374947.801 8  86006467.08446  21003653.863    21003653.484    21003656.035
        48.000          38.0004
 113664378.822 7  88405654.863 7  21226020.782    21226020.905    21226024.276
        43.000          45.000
 119837683.704 7  93380026.68344  22804352.415    22804351.894    22804357.369
        43.000          29.0004
 121809286.862 7  94916347.21146  23179538.492    23179537.690    23179539.355
        43.000          39.0004
 119882818.602 7  93415198.87246  22812941.087    22812940.095    22812944.600
        42.000          37.0004
 119795804.408 5  93174553.818 3  22449685.190    22449684.322    22449692.690
        35.000          20.000
 119774161.813 7  93157713.658 6  22382663.158    22382663.814    22382669.835
        42.000          41.000
 121437343.541 7  94451299.124 6  22749305.535    22749305.047    22749310.771
        42.000          37.000
 128007092.934 5  99745793.66042  24358936.930    24358937.078    24358939.842
        35.000          14.0004
 128949130.678 5 100479861.52444  24538203.285    24538203.684    24538210.462
        35.000          26.0004
 119379203.181 7  92850519.141 3  22395234.748    22395234.348    22395263.604
        43.000          20.000
 22  1  4  8  5 30.0000000  0 14R09G16G09G04R08G26G07G27R06R17R18G20
                                G08R10
 104101542.170 8  80967897.913 8  19494874.919    19494874.921    19494877.001
        53.000          49.000
 108308152.570 8  84395976.87246  20610355.977    20610355.331    20610356.735
        48.000          41.0004
 109559374.612 8  85370955.00548  20848455.408    20848455.094    20848458.465
        51.000          52.0004
 110428210.875 8  86047970.75546  21013789.505    21013789.373    21013792.007
        48.000          38.0004
 113581639.514 7  88341302.089 7  21210569.119    21210569.603    21210573.025
        43.000          45.000
 119929888.674 7  93451874.68144  22821899.233    22821898.113    22821903.673
        42.000          29.0004
 121722734.009 7  94848903.48146  23163067.139    23163067.026    23163068.796
        43.000          39.0004
 119789420.324 7  93342421.05046  22795167.514    22795166.972    22795171.303
        42.000          37.0004
 119925826.765 6  93275682.370 3  22474051.907    22474050.733    22474061.687
        36.000          20.000
 119784962.342 7  93166114.063 6  22384682.229    22384682.338    22384687.373
        43.000          40.000
 121348760.067 7  94382401.012 6  22732710.095    22732709.851    22732716.178
        42.000          37.000
 127957810.314 5  99707391.58342  24349559.166    24349558.101    24349561.458
        35.000          14.0004
 128832876.407 6 100389273.91944  24516081.792    24516081.497    24516087.507
        36.000          26.0004
 119270331.718 7  92765840.833 3  22374809.607    22374810.185    22374842.166
        42.000          20.000
 22  1  4  8  6  0.0000000  0 14R09G16G09G04R08G26G07G27R06R17R18G20
                                G08R10
 104069994.351 8  80943360.724 8  19488966.535    19488966.990    19488969.050
        53.000          49.000
 108336318.727 8  84417924.51246  20615715.939    20615715.101    20615716.500
        50.000          41.0004
 109539081.637 8  85355142.29248  20844593.734    20844593.435    20844596.899
        51.000          53.0004
 110481973.945 8  86089864.02846  21024020.472    21024020.302    21024022.697
        49.000          38.0004
 113499510.669 7  88277424.115 7  21195233.106    21195233.070    21195235.630
        43.000          45.000
 120022348.446 7  93523921.22644  22839492.782    22839492.615    22839498.473
        42.000          29.0004
 121636313.095 7  94781562.53546  23146622.541    23146621.869    23146623.203
        43.000          39.0004
 119696406.163 7  93269942.53146  22777467.321    22777466.743    22777471.362
        42.000          38.0004
 120056106.241 6  93377010.794 3  22498465.790    22498465.012    22498473.290
        36.000          20.000
 119796584.601 7  93175153.590 6  22386855.360    22386855.154    22386860.046
        43.000          40.000
 121260742.514 7  94313943.045 6  22716222.007    22716221.709    22716226.953
        42.000          37.000
 127909047.019 6  99669394.19542  24340280.085    24340279.436    24340281.559
        36.000          14.0004
 128716693.177 5 100298741.64444  24493971.991    24493971.395    24493978.431
        35.000          26.0004
 119161703.919 7  92681353.153 3  22354432.297    22354432.086    22354472.327
        42.000          20.000
 22  1  4  8  6 30.0000000  0 14R09G16G09G04R08G26G07G27R06R17R18G20
                                G08R10
 104038972.234 8  80919232.417 8  19483157.392    19483157.483    19483159.570
        53.000          49.000
 108365073.139 8  84440330.54046  20621187.766    20621186.930    20621188.354
        49.000          41.0004
 109519348.346 8  85339765.69648  20840838.399    20840838.228    20840841.773
        51.000          52.0004
 110536225.454 8  86132137.91346  21034344.401    21034343.958    21034346.626
        49.000          38.0004
 113417985.155 7  88214015.401 7  21180008.292    21180008.595    21180011.738
        43.000          45.000
 120115050.307 6  93596156.40244  22857132.959    22857133.066    22857138.784
        41.000          28.0004
 121550014.326 7  94714316.76646  23130199.452    23130199.511    23130201.220
        42.000          39.0004
 119603769.034 7  93197757.78746  22759838.517    22759838.387    22759843.123
        42.000          38.0004
 120186628.794 6  93478528.411 3  22522925.845    22522924.685    22522924.785
        36.000          20.000
 119809017.609 7  93184823.709 6  22389179.436    22389178.333    22389182.029
        43.000          40.000
 121173284.829 7  94245920.555 6  22699837.120    22699836.930    22699843.490
        42.000          37.000
 127860794.086 6  99631794.52742  24331098.130    24331098.533    24331100.183
        36.000          14.0004
 128600574.833 6 100208259.91744  24471876.013    24471875.734    24471881.801
        36.000          26.0004
 119053310.927 7  92597047.477 3  22334097.208    22334097.312    22334133.896
        42.000          20.000
 22  1  4  8  7  0.0000000  0 14R09G16G09G04R08G26G07G27R06R17R18G20
                                G08R10
 104008476.401 8  80895513.440 8  19477446.583    19477446.483    19477448.723
        53.000          48.000
 108394414.781 8  84463194.14246  20626771.339    20626770.392    20626771.907
        49.000          41.0004
 109500176.417 8  85324826.52148  20837190.886    20837190.016    20837193.452
        51.000          52.0004
 110590964.863 8  86174791.97146  21044760.429    21044760.668    21044763.048
        48.000          38.0004
 113337067.031 7  88151079.092 7  21164897.366    21164897.832    21164900.977
        44.000          45.000
 120207992.665 6  93668578.98744  22874819.759    22874819.362    22874825.473
        41.000          28.0004
 121463839.531 7  94647167.60146  23113802.657    23113801.308    23113802.441
        43.000          40.0004
 119511512.697 7  93125869.74246  22742283.059    22742282.667    22742287.227
        42.000          37.0004
 120317391.243 5  93580232.586 3  22547431.465    22547429.963    22547420.440
        35.000          20.000
 119822261.680 7  93195124.671 6  22391653.362    22391652.887    22391657.966
        43.000          40.000
 121086391.314 7  94178336.842 6  22683559.435    22683559.449    22683565.475
        42.000          37.000
 127813053.675 5  99594594.17942  24322013.165    24322012.931    24322015.534
        34.000          15.0004
 128484524.469 6 100117831.16144  24449792.743    24449791.363    24449798.014
        36.000          26.0004
 118945154.986 7  92512926.144 3  22313807.974    22313807.863    22313841.131
        43.000          20.000
 22  1  4  8  7 30.0000000  0 14R09G16G09G04R08G26G07G27R06R17R18G20
                                G08R10
 103978521.566 8  80872215.248 7  19471836.908    19471836.982    19471838.976
        53.000          47.000
 108424355.974 8  84486524.93646  20632469.044    20632468.041    20632469.591
        49.000          41.0004
 109481580.756 8  85310336.39348  20833651.942    20833651.421    20833654.824
        50.000          53.0004
 110646204.928 8  86217836.16746  21055272.726    21055272.317    21055274.827
        48.000          38.0004
 113256773.850 7  88088628.864 7  21149902.938    21149903.336    21149906.165
        43.000          43.000
 120301187.009 7  93741197.91244  22892553.955    22892553.628    22892559.106
        42.000          28.0004
 121377803.761 7  94580126.75246  23097429.161    23097428.707    23097430.436
        42.000          39.0004
 119419654.436 7  93054291.87946  22724802.840    22724802.678    22724807.140
        43.000          38.0004
 120448403.810 5  93682131.776 3  22571981.195    22571981.923    22571962.478
        35.000          20.000
 119836330.169 7  93206066.825 6  22394282.233    22394282.284    22394286.242
        44.000          39.000
 121000080.552 7  94111206.395 6  22667392.122    22667390.762    22667395.267
        43.000          36.000
 127765841.544 5  99557805.49142  24313029.560    24313029.219    24313031.494
        35.000          15.0004
 128368558.672 5 100027468.27444  24427725.995    24427724.404    24427730.242
        35.000          26.0004
 118837251.584 7  92429000.686 3  22293565.529    22293564.980    22293601.213
        42.000          20.000
 22  1  4  8  8  0.0000000  0 14R09G16G09G04R08G26G07G27R06R17R18G20
                                G08R10
 103949112.536 8  80849341.553 8  19466329.240    19466329.659    19466331.729
        53.000          49.000
 108454900.277 8  84510325.67846  20638281.209    20638280.452    20638281.972
        48.000          41.0004
 109463567.587 8  85296300.14648  20830224.185    20830223.736    20830227.060
        51.000          53.0004
 110701949.594 8  86261273.56046  21065880.356    21065880.186    21065882.855
        49.000          38.0004
 113177114.579 7  88026671.669 7  21135027.129    21135027.360    21135030.848
        43.000          44.000
 120394636.223 6  93814015.45144  22910337.365    22910336.602    22910342.274
        41.000          28.0004
 121291912.884 7  94513198.80846  23081084.569    23081084.246    23081085.697
        42.000          39.0004
 119328202.543 7  92983030.65046  22707400.270    22707399.964    22707404.741
        43.000          38.0004
 120579668.246 5  93784225.813 3  22596580.642    22596579.848    22596565.025
        35.000          20.000
 119851227.869 7  93217653.937 6  22397066.279    22397065.584    22397071.037
        42.000          40.000
 120914361.591 7  94044536.223 6  22651334.099    22651333.268    22651338.464
        43.000          38.000
 127719164.420 5  99521433.74242  24304147.862    24304147.465    24304148.423
        35.000          14.0004
 128252685.948 6  99937177.90944  24405675.184    24405674.232    24405679.923
        36.000          26.0004
 118729607.611 7  92345277.547 3  22273371.436    22273371.484    22273378.936
        43.000          20.000
 22  1  4  8  8 30.0000000  0 14R09G16G09G04R08G26G07G27R06R17R18G20
                                G08R10
 103920247.982 8  80826891.342 8  19460924.202    19460924.295    19460926.262
        52.000          49.000
 108486044.645 8  84534594.01046  20644207.459    20644207.007    20644208.524
        49.000          40.0004
 109446136.234 8  85282717.26548  20826907.024    20826906.662    20826909.995
        51.000          53.0004
 110758195.989 7  86305101.90546  21076583.740    21076583.280    21076586.265
        47.000          38.0004
 113098091.217 7  87965209.066 7  21120269.819    21120270.441    21120273.834
        44.000          45.000
 120488336.448 6  93887028.57144  22928167.571    22928167.052    22928172.563
        41.000          27.0004
 121206166.248 7  94446383.24746  23064767.725    23064767.007    23064768.266
        42.000          39.0004
 119237158.571 7  92912087.28146  22690075.154    22690074.978    22690079.605
        43.000          38.0004
 120711178.910 5  93886511.893 3  22621225.135    22621225.319    22621210.767
        35.000          20.000
 119866952.113 7  93229883.920 6  22400004.369    22400003.657    22400009.390
        42.000          40.000
 120829236.998 7  93978328.350 6  22635385.784    22635385.656    22635390.690
        43.000          37.000
 127673022.284 6  99485478.81542  24295367.516    24295365.180    24295368.411
        36.000          14.0004
 128136907.759 5  99846961.19444  24383643.583    24383642.033    24383647.905
        35.000          26.0004
 118622222.613 7  92261755.825 3  22253226.388    22253225.981    22253251.630
        42.000          20.000
 22  1  4  8  9  0.0000000  0 14R09G16G09G04R08G26G07G27R06R17R18G20
                                G08R10
 103891918.189 8  80804857.064 8  19455618.639    19455618.997    19455620.898
        53.000          49.000
 108517777.479 8  84559320.88846  20650246.285    20650245.512    20650247.044
        49.000          40.0004
 109429278.082 8  85269581.03348  20823699.101    20823698.613    20823701.969
        51.000          53.0004
 110814933.250 8  86349312.72846  21087380.361    21087380.340    21087383.021
        48.000          38.0004
 113019697.356 7  87904236.083 7  21105630.670    21105631.027    21105633.987
        44.000          45.000
 120582275.685 6  93960227.95344  22946043.653    22946043.486    22946048.278
        41.000          27.0004
 121120555.322 7  94379673.45446  23048476.076    23048475.947    23048477.762
        42.000          39.0004
 119146516.183 7  92841456.82346  22672826.801    22672826.499    22672831.117
        43.000          38.0004
 120842922.440 5  93988979.595 3  22645914.559    22645914.538    22645894.616
        35.000          20.000
 119883492.826 7  93242748.906 6  22403095.017    22403095.035    22403100.227
        42.000          40.000
 120744701.216 7  93912578.399 6  22619549.604    22619549.175    22619554.637
        43.000          37.000
 127627406.710 5  99449934.23042  24286685.422    24286684.968    24286688.223
        35.000          15.0004
 128021217.348 5  99756812.90644  24361626.970    24361626.934    24361633.448
        35.000          26.0004
 118515088.231 7  92178429.591 3  22233129.264    22233128.405    22233150.541
        43.000          20.000
 22  1  4  8  9 30.0000000  0 14R09G16G09G04R08G26G07G27R06R17R18G20
                                G08R10
 103864111.618 8  80783229.733 8  19450411.655    19450411.691    19450413.761
        53.000          50.000
 108550086.060 8  84584496.40146  20656394.635    20656393.753    20656395.169
        49.000          41.0004
 109412982.681 8  85256883.31548  20820597.895    20820597.646    20820601.103
        50.000          53.0004
 110872148.786 8  86393896.24446  21098268.078    21098268.002    21098270.905
        49.000          37.0004
 112941924.848 7  87843746.369 7  21091107.080    21091107.372    21091110.972
        44.000          45.000
 120676440.294 7  94033602.92744  22963962.883    22963962.088    22963967.869
        42.000          27.0004
 121035069.642 7  94313061.24346  23032207.939    23032207.844    23032210.029
        42.000          39.0004
 119056267.159 7  92771132.88546  22655652.573    22655652.519    22655657.473
        43.000          39.0004
 120974883.480 6  94091615.517 3  22670646.328    22670643.917    22670622.312
        36.000          20.000
 119900837.355 6  93256239.104 6  22406336.699    22406336.179    22406342.299
        41.000          41.000
 120660746.330 7  93847280.257 6  22603822.640    22603821.828    22603827.871
        44.000          38.000
 127582308.007 5  99414792.39142  24278103.230    24278101.653    24278105.229
        34.000          14.0004
 127905606.788 5  99666726.83444  24339627.643    24339627.447    24339632.475
        35.000          26.0004
 118408195.134 7  92095290.493 3  22213075.164    22213075.135    22213085.762
        43.000          20.000
 22  1  4  8 10  0.0000000  0 14R09G16G09G04R08G26G07G27R06R17R18G20
                                G08R10
 103836837.489 8  80762016.532 8  19445304.059    19445304.009    19445306.070
        53.000          51.000
 108582977.775 8  84610126.30346  20662653.460    20662652.778    20662654.257
        48.000          41.0004
 109397259.972 8  85244631.84348  20817605.482    20817605.649    20817609.209
        51.000          53.0004
 110929850.304 8  86438858.44546  21109248.294    21109248.257    21109251.038
        48.000          37.0004
 112864786.366 7  87783749.780 7  21076702.699    21076702.592    21076705.377
        44.000          45.000
 120770837.062 6  94107158.81444  22981925.328    22981925.578    22981930.988
        41.000          27.0004
 120949719.527 7  94246554.66746  23015967.254    23015966.833    23015968.585
        43.000          39.0004
 118966423.739 7  92701124.99046  22638556.439    22638555.974    22638561.065
        43.000          39.0004
 121107067.703 5  94194425.366 3  22695413.872    22695415.058    22695421.372
        35.000          20.000
 119918994.264 7  93270361.114 6  22409730.920    22409729.666    22409733.911
        42.000          40.000
 120577386.074 7  93782444.585 6  22588206.770    22588205.178    22588210.978
        43.000          37.000
 127537736.593 5  99380061.39842  24269622.497    24269621.531    24269623.912
        35.000          15.0004
 127790087.944 5  99576712.24244  24317644.928    24317644.495    24317650.974
        35.000          26.0004
 118301553.629 7  92012347.125 3  22193068.821    22193069.405    22193071.338
        43.000          20.000
 22  1  4  8 10 30.0000000  0 15R09G16G09G04R08G26G07G27R06R17R18G20
                                G08R10G30
 103810117.281 8  80741234.152 8  19440299.849    19440300.188    19440302.331
        53.000          50.000
 108616471.652 8  84636225.42346  20669027.484    20669026.571    20669028.024
        49.000          40.0004
 109382132.141 8  85232843.92248  20814727.278    20814726.952    20814730.521
        51.000          52.0004
 110988057.803 8  86484214.92546  21120324.991    21120324.721    21120327.581
        48.000          37.0004
 112788307.072 7  87724265.903 7  21062420.530    21062420.549    21062423.568
        44.000          45.000
 120865484.867 6  94180910.31544  22999936.457    22999936.246    22999941.658
        41.000          27.0004
 120864527.063 7  94180170.94446  22999755.343    22999754.938    22999756.988
        42.000          39.0004
 118877010.367 7  92631452.20746  22621541.983    22621541.245    22621546.346
        43.000          39.0004
 121239492.594 5  94297422.522 3  22720231.458    22720231.898    22720238.958
        35.000          20.000
 119937984.423 7  93285131.226 6  22413279.502    22413279.320    22413283.954
        43.000          40.000
 120494645.469 7  93718090.861 6  22572705.414    22572705.519    22572710.390
        43.000          37.000
 127493714.582 5  99345758.52242  24261244.578    24261243.606    24261247.815
        34.000          14.0004
 127674684.668 5  99486787.69444  24295684.794    24295683.729    24295689.645
        34.000          26.0004
 118195186.517 7  91929616.656 3  22173114.865    22173114.623    22173122.365
        43.000          20.000
 134697460.431 5 104959071.44243  25632072.210    25632071.695    25632078.669
        33.000          22.0004
 22  1  4  8 11  0.0000000  0 15R09G16G09G04R08G26G07G27R06R17R18G20
                                G08R10G30
 103783936.405 8  80720871.248 8  19435397.204    19435397.454    19435399.453
        53.000          49.000
 108650551.843 8  84662781.41046  20675512.559    20675511.804    20675513.164
        49.000          41.0004
 109367585.639 8  85221508.97748  20811959.411    20811958.933    20811962.488
        50.000          53.0004
 111046755.544 7  86529953.41146  21131494.921    21131494.766    21131497.389
        47.000          38.0004
 112712475.829 7  87665286.065 7  21048259.287    21048259.654    21048262.678
        44.000          45.000
 120960367.040 6  94254844.44844  23017992.534    23017992.147    23017997.413
        41.000          27.0004
 120779478.652 7  94113899.46046  22983571.845    22983571.211    22983572.538
        43.000          39.0004
 118788015.690 7  92562105.67846  22604606.313    22604606.101    22604611.156
        43.000          39.0004
 121372139.867 5  94400592.663 3  22745089.168    22745090.025    22745096.668
        35.000          20.000
 119957791.951 7  93300537.058 6  22416980.124    22416980.025    22416983.842
        42.000          40.000
 120412514.210 7  93654211.056 6  22557319.119    22557318.903    22557324.279
        42.000          37.000
 127450229.837 5  99311874.30342  24252970.124    24252968.085    24252971.510
        34.000          14.0004
 127559386.223 5  99396944.82444  24273742.201    24273743.332    24273749.378
        34.000          25.0004
 118089080.580 7  91847089.812 3  22153210.748    22153210.217    22153218.248
        43.000          20.000
 134593722.384 5 104878236.71843  25612331.514    25612331.374    25612338.006
        33.000          23.0004
 22  1  4  8 11 30.0000000  0 15R09G16G09G04R08G26G07G27R06R17R18G20
                                G08R10G30
 103758307.038 8  80700937.296 8  19430597.812    19430597.809    19430599.900
        53.000          49.000
 108685228.051 8  84689801.82846  20682111.294    20682110.404    20682111.974
        48.000          40.0004
 109353633.033 8  85210636.81348  20809304.506    20809303.860    20809307.406
        50.000          53.0004
 111105953.924 8  86576082.01046  21142759.701    21142759.838    21142762.441
        48.000          37.0004
 112637307.923 7  87606822.155 7  21034222.047    21034222.359    21034225.742
        43.000          45.000
 121055493.017 6  94328968.55344  23036094.121    23036093.544    23036098.725
        41.000          26.0004
 120694587.043 7  94047750.15846  22967416.647    22967416.648    22967418.699
        43.000          40.0004
 118699454.664 7  92493097.06446  22587753.841    22587753.380    22587758.485
        43.000          39.0004
 121505017.724 5  94503942.082 3  22769990.057    22769990.623    22769997.557
        35.000          20.000
 119978427.798 7  93316587.157 6  22420836.853    22420837.152    22420841.246
        43.000          40.000
 120331008.079 7  93590817.458 6  22542049.782    22542049.595    22542055.683
        42.000          37.000
 127407295.684 5  99278419.14742  24244799.640    24244798.075    24244803.333
        34.000          14.0004
 127444206.910 5  99307194.78044  24251825.401    24251825.011    24251831.051
        35.000          25.0004
 117983249.683 7  91764776.909 3  22133356.705    22133356.408    22133351.353
        43.000          20.000
 134490008.913 5 104797421.12643  25592595.923    25592594.318    25592601.414
        32.000          23.0004
 22  1  4  8 12  0.0000000  0 15R09G16G09G04R08G26G07G27R06R17R18G20
                                G08R10G30
 103733201.345 8  80681410.642 8  19425896.306    19425896.330    19425898.209
        53.000          48.000
 108720471.675 8  84717264.38646  20688817.413    20688816.979    20688818.663
        49.000          40.0004
 109340248.135 8  85200207.01148  20806757.085    20806756.803    20806760.309
        51.000          53.0004
 111165624.561 8  86622578.60146  21154114.842    21154114.601    21154117.374
        48.000          38.0004
 112562778.916 7  87548855.157 7  21020304.139    21020304.720    21020307.703
        44.000          45.000
 121150833.383 6  94403259.72944  23054236.719    23054236.762    23054242.125
        41.000          26.0004
 120609826.536 7  93981703.02546  22951288.574    22951287.515    22951289.228
        43.000          40.0004
 118611303.334 7  92424407.70046  22570978.607    22570978.711    22570983.724
        43.000          39.0004
 121638094.909 5  94607446.588 3  22794929.821    22794930.475    22794937.321
        35.000          20.000
 119999863.811 7  93333259.588 6  22424841.901    22424842.480    22424846.427
        42.000          40.000
 120250103.401 7  93527891.640 6  22526894.896    22526894.222    22526899.035
        43.000          37.000
 127364885.996 5  99245372.62042  24236729.993    24236729.102    24236732.129
        33.000          13.0004
 127329122.898 5  99217518.96344  24229925.663    24229926.073    24229931.641
        35.000          26.0004
 117877667.734 7  91682658.252 3  22113550.144    22113549.459    22113555.200
        43.000          20.000
 134386293.906 5 104716604.29743  25572858.649    25572858.614    25572864.393
        33.000          23.0004
 22  1  4  8 12 30.0000000  0 15R09G16G09G04R08G26G07G27R06R17R18G20
                                G08R10G30
 103708628.980 8  80662298.809 7  19421294.458    19421294.722    19421296.711
        53.000          47.000
 108756290.580 8  84745175.22146  20695633.725    20695633.114    20695634.613
        49.000          41.0004
 109327441.314 8  85190227.66748  20804319.949    20804319.734    20804323.125
        50.000          52.0004
 111225775.631 8  86669449.56146  21165561.378    21165561.057    21165563.498
        48.000          37.0004
 112488902.183 7  87491395.491 7  21006507.662    21006508.482    21006511.848
        44.000          44.000
 121246395.554 6  94477723.73644  23072421.681    23072421.312    23072426.702
        40.000          26.0004
 120525207.334 7  93915766.00246  22935184.672    22935184.721    22935186.563
        44.000          40.0004
 118523574.380 7  92356047.46746  22554285.119    22554284.400    22554289.466
        43.000          39.0004
 121771377.269 5  94711110.552 3  22819907.087    22819906.523    22819886.926
        34.000          20.000
 120022108.639 6  93350561.110 6  22428999.234    22428998.734    22429003.094
        41.000          39.000
 120169813.993 7  93465444.360 6  22511852.304    22511852.508    22511858.722
        43.000          37.000
 127323011.277 5  99212742.99042  24228759.274    24228760.301    24228761.953
        34.000          14.0004
 127214147.121 5  99127927.46944  24208047.222    24208046.610    24208052.253
        35.000          25.0004
 117772345.620 7  91600740.616 3  22093791.873    22093791.098    22093807.032
        43.000          20.000
 134282587.674 5 104635794.25043  25553124.087    25553123.906    25553130.280
        33.000          23.0004
 22  1  4  8 13  0.0000000  0 15R09G16G09G04R08G26G07G27R06R17R18G20
                                G08R10G30
 103684599.596 8  80643609.291 8  19416794.913    19416794.826    19416796.855
        53.000          49.000
 108792692.571 8  84773540.40146  20702560.811    20702560.177    20702561.806
        49.000          40.0004
 109315222.908 8  85180706.82548  20801994.770    20801994.585    20801997.941
        51.000          53.0004
 111286415.280 8  86716701.23346  21177100.484    21177100.428    21177103.136
        48.000          37.0004
 112415690.592 7  87434453.144 7  20992836.888    20992837.169    20992840.300
        44.000          45.000
 121342186.744 6  94552366.19444  23090649.597    23090649.210    23090655.309
        40.000          26.0004
 120440740.180 7  93849947.46246  22919111.455    22919111.287    22919113.069
        43.000          40.0004
 118436280.473 7  92288026.22946  22537673.439    22537673.058    22537678.088
        43.000          39.0004
 121904870.986 5  94814938.996 3  22844924.137    22844922.899    22844931.637
        34.000          20.000
 120045170.659 6  93368498.214 6  22433308.789    22433308.738    22433313.335
        41.000          40.000
 120090153.341 7  93403486.094 6  22496930.366    22496930.024    22496935.010
        43.000          37.000
 127281682.640 5  99180538.84442  24220895.113    24220894.655    24220898.004
        33.000          13.0004
 127099291.648 6  99038429.71044  24186190.293    24186190.680    24186196.736
        36.000          26.0004
 117667294.267 7  91519033.970 3  22074084.786    22074084.106    22074092.286
        44.000          20.000
 134178900.828 5 104554999.31343  25533394.022    25533393.181    25533399.171
        33.000          23.0004
 22  1  4  8 13 30.0000000  0 15R09G16G09G04R08G26G07G27R06R17R18G20
                                G08R10G30
 103661097.514 8  80625329.917 8  19412393.580    19412393.709    19412395.613
        53.000          50.000
 108829660.509 8  84802346.58646  20709595.681    20709595.063    20709596.540
        49.000          41.0004
 109303578.274 8  85171633.08248  20799778.802    20799778.707    20799782.020
        51.000          53.0004
 111347526.740 8  86764320.54246  21188729.770    21188729.307    21188732.330
        48.000          37.0004
 112343131.974 7  87378018.680 7  20979285.943    20979287.251    20979290.330
        44.000          45.000
 121438189.203 6  94627173.29044  23108918.766    23108918.564    23108923.429
        41.000          26.0004
 120356410.718 7  93784236.20546  22903063.933    22903063.633    22903065.639
        42.000          40.0004
 118349409.307 7  92220334.41646  22521142.301    22521141.907    22521146.894
        42.000          39.0004
 122038556.600 5  94918916.692 3  22869976.538    22869975.225    22869984.038
        34.000          20.000
 120069033.283 6  93387058.026 6  22437767.643    22437766.937    22437771.974
        41.000          39.000
 120011109.427 7  93342007.516 6  22482122.164    22482122.169    22482127.840
        43.000          38.000
 127240885.902 5  99148749.19942  24213132.882    24213131.105    24213134.832
        34.000          14.0004
 126984544.419 6  98949016.30544  24164355.025    24164354.680    24164360.073
        36.000          25.0004
 117562500.314 7  91437527.686 3  22054426.247    22054425.447    22054435.269
        44.000          20.000
 134075218.831 5 104474208.16344  25513664.280    25513662.957    25513669.527
        33.000          24.0004
 22  1  4  8 14  0.0000000  0 15R09G16G09G04R08G26G07G27R06R17R18G20
                                G08R10G30
 103638137.410 8  80607472.064 8  19408094.076    19408094.025    19408095.977
        53.000          50.000
 108867206.686 8  84831603.34346  20716740.624    20716739.869    20716741.440
        49.000          40.0004
 109292522.803 8  85163018.42148  20797675.118    20797674.922    20797678.257
        51.000          53.0004
 111409123.170 7  86812317.74146  21200451.290    21200450.812    21200453.547
        47.000          37.0004
 112271244.213 7  87322105.988 7  20965862.065    20965862.578    20965865.826
        44.000          45.000
 121534415.346 6  94702154.69144  23127230.185    23127229.993    23127234.855
        41.000          26.0004
 120272234.067 7  93718644.04046  22887046.450    22887045.933    22887047.366
        44.000          41.0004
 118262978.545 7  92152985.77646  22504694.681    22504694.438    22504699.605
        42.000          39.0004
 122172445.023 5  95023052.143 3  22895066.627    22895066.212    22895074.127
        33.000          20.000
 120093710.246 7  93406251.204 6  22442380.014    22442380.068    22442384.084
        42.000          40.000
 119932701.167 7  93281023.311 6  22467434.930    22467434.228    22467439.252
        44.000          38.000
 127200637.566 5  99117386.84042  24205474.980    24205474.075    24205476.824
        35.000          15.0004
 126869922.465 6  98859700.51544  24142543.235    24142542.946    24142549.180
        36.000          26.0004
 117457979.519 7  91356233.663 3  22034817.684    22034817.693    22034833.215
        44.000          20.000
 133971557.204 5 104393432.79244  25493936.996    25493937.374    25493942.899
        34.000          24.0004
 22  1  4  8 14 30.0000000  0 15R09G16G09G04R08G26G07G27R06R17R18G20
                                G08R10G30
 103615728.275 8  80590042.740 8  19403897.434    19403897.473    19403899.627
        53.000          50.000
 108905338.292 8  84861316.28246  20723996.730    20723995.939    20723997.549
        49.000          40.0004
 109282066.166 8  85154870.39248  20795685.094    20795685.041    20795688.423
        50.000          52.0004
 111471212.133 8  86860698.73946  21212266.225    21212266.019    21212268.808
        48.000          37.0004
 112200040.027 7  87266724.973 7  20952564.640    20952565.424    20952568.890
        45.000          46.000
 121630871.860 6  94777315.61144  23145584.972    23145584.467    23145590.595
        40.000          26.0004
 120188220.614 7  93653179.04246  22871058.693    22871058.452    22871060.016
        44.000          40.0004
 118177000.314 7  92085989.77646  22488333.668    22488333.444    22488338.544
        43.000          39.0004
 122306541.831 5  95127349.621 3  22920194.124    22920195.990    22920201.624
        34.000          20.000
 120119209.143 6  93426083.686 6  22447143.808    22447143.869    22447149.311
        41.000          40.000
 119854941.418 7  93220543.510 6  22452867.572    22452866.481    22452872.425
        43.000          37.000
 127160947.528 6  99086459.51942  24197921.720    24197921.478    24197925.049
        36.000          16.0004
 126755438.432 5  98770492.21744  24120756.981    24120756.841    24120763.790
        35.000          26.0004
 117353742.223 7  91275160.681 3  22015262.595    22015262.705    22015277.399
        43.000          20.000
 133867925.749 5 104312681.00744  25474217.327    25474216.814    25474222.862
        33.000          24.0004
 22  1  4  8 15  0.0000000  0 15R09G16G09G04R08G26G07G27R06R17R18G20
                                G08R10G30
 103593853.780 8  80573029.238 8  19399800.801    19399800.964    19399803.197
        53.000          50.000
 108944037.547 8  84891471.53946  20731361.010    20731360.232    20731361.795
        49.000          40.0004
 109272193.126 8  85147177.10948  20793806.568    20793806.291    20793809.718
        50.000          52.0004
 111533776.227 8  86909449.95646  21224171.953    21224171.675    21224174.513
        48.000          37.0004
 112129506.356 7  87211865.468 7  20939392.822    20939393.939    20939397.391
        44.000          46.000
 121727540.464 6  94852641.78844  23163980.989    23163979.991    23163985.529
        40.000          26.0004
 120104355.387 7  93587829.53046  22855099.856    22855099.604    22855100.732
        44.000          41.0004
 118091461.609 7  92019336.26546  22472055.881    22472055.928    22472061.038
        43.000          40.0004
 122440826.952 5  95231793.649 3  22945362.959    22945360.879    22945370.459
        35.000          20.000
 120145513.027 7  93446542.246 6  22452060.951    22452060.970    22452064.989
        42.000          41.000
 119777817.800 7  93160558.476 6  22438419.079    22438418.788    22438423.826
        43.000          37.000
 127121801.498 6  99055956.13542  24190473.896    24190471.411    24190474.274
        36.000          14.0004
 126641079.614 6  98681381.52444  24098996.024    24098995.658    24099001.725
        36.000          26.0004
 117249774.079 7  91194296.598 3  21995757.901    21995757.891    21995770.784
        43.000          20.000
 133764309.476 5 104231941.03544  25454500.422    25454499.127    25454504.787
        34.000          25.0004
 22  1  4  8 15 30.0000000  0 15R09G16G09G04R08G26G07G27R06R17R18G20
                                G08R10G30
 103572516.548 8  80556433.611 8  19395805.277    19395805.228    19395807.410
        53.000          50.000
 108983305.411 8  84922069.87646  20738833.498    20738832.543    20738834.174
        48.000          40.0004
 109262907.111 8  85139941.25348  20792039.503    20792039.276    20792042.685
        51.000          53.0004
 111596816.747 8  86958572.42046  21236168.370    21236168.020    21236170.573
        48.000          37.0004
 112059648.929 7  87157531.940 7  20926347.963    20926348.293    20926351.921
        44.000          46.000
 121824421.657 6  94928133.63444  23182416.550    23182416.266    23182420.907
        40.000          25.0004
 120020642.256 7  93522598.55646  22839169.764    22839169.491    22839170.917
        44.000          41.0004
 118006368.288 7  91953029.82446  22455863.774    22455863.371    22455868.154
        43.000          40.0004
 122575299.441 5  95336383.291 3  22970561.930    22970561.322    22970569.430
        34.000          20.000
 120172623.009 6  93467627.812 6  22457125.900    22457126.979    22457131.190
        41.000          40.000
 119701337.072 7  93101073.453 6  22424091.355    22424091.388    22424096.900
        43.000          37.000
 127083203.000 5  99025879.39742  24183127.384    24183126.216    24183127.972
        35.000          14.0004
 126526851.420 6  98592372.60844  24077257.574    24077258.145    24077265.337
        36.000          27.0004
 117146079.006 7  91113644.187 3  21976305.970    21976305.511    21976315.322
        44.000          20.000
 133660712.053 5 104151215.74044  25434785.536    25434785.752    25434790.730
        34.000          25.0004
 22  1  4  8 16  0.0000000  0 15R09G16G09G04R08G26G07G27R06R17R18G20
                                G08R10G30
 103551703.212 8  80540245.463 8  19391907.562    19391907.734    19391909.739
        53.000          49.000
 109023127.104 8  84953099.76446  20746411.048    20746410.365    20746411.951
        49.000          40.0004
 109254195.846 8  85133153.24848  20790382.379    20790381.643    20790384.985
        51.000          53.0004
 111660319.244 7  87008054.85746  21248252.402    21248252.026    21248254.589
        47.000          36.0004
 111990458.314 7  87103717.037 7  20913427.504    20913427.766    20913430.802
        44.000          46.000
 121921500.256 6  95003779.29144  23200890.077    23200889.400    23200895.841
        41.000          26.0004
 119937069.005 7  93457476.55146  22823266.402    22823265.906    22823267.088
        44.000          41.0004
 117921710.415 7  91887062.69446  22439753.766    22439753.513    22439758.358
        43.000          40.0004
 122709942.386 5  95441105.471 3  22995793.216    22995793.657    22995800.716
        34.000          20.000
 120200524.856 6  93489329.273 6  22462341.464    22462341.209    22462345.801
        41.000          41.000
 119625489.276 7  93042080.710 6  22409883.729    22409882.933    22409887.217
        44.000          37.000
 127045139.711 5  98996219.65642  24175883.333    24175882.384    24175886.091
        34.000          15.0004
 126412743.889 6  98503457.73444  24055543.670    24055544.305    24055550.867
        36.000          27.0004
 117042645.705 7  91033196.049 3  21956901.480    21956901.189    21956908.980
        43.000          20.000
 133557121.462 5 104070495.78343  25415072.314    25415071.725    25415077.424
        33.000          23.0004
 22  1  4  8 16 30.0000000  0 15R09G16G09G04R08G26G07G27R06R17R18G20
                                G08R10G30
 103531428.520 8  80524476.262 8  19388110.745    19388110.869    19388112.904
        53.000          49.000
 109063514.785 8  84984570.68546  20754096.372    20754095.803    20754097.538
        48.000          40.0004
 109246074.244 8  85126824.72148  20788836.733    20788836.139    20788839.501
        51.000          52.0004
 111724296.596 8  87057907.32146  21260427.097    21260426.644    21260429.193
        48.000          36.0004
 111921951.960 7  87050434.342 7  20900634.500    20900634.722    20900637.722
        44.000          46.000
 122018788.290 6  95079588.14444  23219403.000    23219402.605    23219408.407
        40.000          25.0004
 119853650.922 7  93392475.46846  22807392.831    22807392.154    22807393.662
        44.000          41.0004
 117837505.307 7  91821448.37846  22423730.556    22423729.830    22423734.639
        43.000          40.0004
 122844766.512 5  95545969.188 3  23021059.814    23021059.800    23021014.091
        35.000          20.000
 120229231.548 7  93511656.726 6  22467706.002    22467705.203    22467709.823
        42.000          40.000
 119550292.841 7  92983594.603 6  22395795.752    22395795.329    22395801.076
        43.000          37.000
 127007627.949 5  98966989.72242  24168747.476    24168745.200    24168746.951
        35.000          14.0004
 126298774.582 5  98414650.56944  24033855.335    24033856.194    24033863.721
        35.000          27.0004
 116939490.134 7  90952963.882 3  21937548.799    21937549.194    21937557.352
        43.000          20.000
 133453552.933 5 103989793.01544  25395363.860    25395363.741    25395369.747
        34.000          25.0004
 22  1  4  8 17  0.0000000  0 15R09G16G09G04R08G26G07G27R06R17R18G20
                                G08R10G30
 103511680.159 8  80509116.425 8  19384412.529    19384412.468    19384414.726
        53.000          48.000
 109104455.147 8  85016472.26346  20761887.432    20761886.534    20761888.255
        49.000          40.0004
 109238531.407 8  85120947.17648  20787401.448    20787400.753    20787404.198
        51.000          53.0004
 111788735.694 7  87108119.59146  21272689.295    21272688.958    21272691.583
        47.000          36.0004
 111854121.356 7  86997677.225 7  20887967.273    20887967.923    20887970.713
        44.000          45.000
 122116271.905 6  95155549.43044  23237954.048    23237953.332    23237958.696
        40.000          25.0004
 119770377.764 7  93327587.31246  22791545.142    22791545.420    22791546.726
        44.000          41.0004
 117753744.413 7  91756180.20046  22407791.419    22407790.691    22407795.278
        43.000          40.0004
 122979756.464 5  95650961.312 3  23046358.768    23046357.093    23046300.730
        35.000          20.000
 120258729.778 6  93534599.833 6  22473217.120    22473216.399    22473222.012
        41.000          40.000
 119475739.976 7  92925609.016 6  22381830.192    22381829.649    22381834.055
        43.000          37.000
 126970657.150 6  98938181.32642  24161709.870    24161709.449    24161711.997
        36.000          14.0004
 126184934.724 6  98325944.25044  24012193.237    24012193.158    24012199.915
        36.000          27.0004
 116836601.275 7  90872939.311 3  21918248.227    21918247.826    21918255.727
        44.000          20.000
 133349995.726 5 103909099.13144  25375659.147    25375657.180    25375663.317
        33.000          25.0004
 22  1  4  8 17 30.0000000  0 15R09G16G09G04R08G26G07G27R06R17R18G20
                                G08R10G30
 103492475.771 8  80494179.678 8  19380816.307    19380816.263    19380818.319
        53.000          48.000
 109145963.384 8  85048816.34246  20769785.930    20769785.247    20769786.969
        48.000          40.0004
 109231585.386 8  85115534.69448  20786079.585    20786078.952    20786082.482
        51.000          53.0004
 111853652.467 8  87158704.07346  21285042.198    21285042.111    21285044.872
        48.000          36.0004
 111786987.633 7  86945462.136 7  20875430.351    20875431.136    20875434.085
        45.000          45.000
 122213966.405 6  95231675.01044  23256542.911    23256543.681    23256549.661
        39.000          25.0004
 119687267.557 7  93262826.13646  22775730.488    22775730.163    22775731.544
        44.000          41.0004
 117670448.187 7  91691274.10146  22391940.179    22391939.943    22391944.465
        43.000          40.0004
 123114926.215 5  95756092.816 3  23071688.239    23071687.574    23071695.739
        35.000          20.000
 120289036.114 6  93558171.442 6  22478880.590    22478880.470    22478885.858
        40.000          40.000
 119401851.714 7  92868140.350 6  22367988.364    22367987.168    22367992.599
        43.000          37.000
 126934245.806 5  98909808.86042  24154782.515    24154779.889    24154782.973
        35.000          15.0004
 126071244.827 6  98237354.80044  23990558.832    23990558.528    23990565.871
        36.000          28.0004
 116733998.711 7  90793137.173 3  21899000.618    21899000.692    21899013.911
        44.000          20.000
 133246468.156 5 103828428.27244  25355958.110    25355956.665    25355962.916
        33.000          24.0004
 22  1  4  8 18  0.0000000  0 15R09G16G09G04R08G26G07G27R06R17R18G20
                                G08R10G30
 103473816.051 8  80479666.568 8  19377321.852    19377321.840    19377323.952
        53.000          50.000
 109188039.066 8  85081602.58146  20777792.883    20777792.132    20777793.682
        49.000          40.0004
 109225237.810 8  85110588.52548  20784871.527    20784871.064    20784874.579
        51.000          53.0004
 111919046.412 7  87209660.37146  21297486.330    21297486.121    21297489.059
        46.000          36.0004
 111720554.775 7  86893792.156 7  20863023.813    20863024.919    20863028.159
        45.000          46.000
 122311870.492 6  95307963.91944  23275175.543    23275174.301    23275179.654
        40.000          25.0004
 119604322.711 7  93198193.80346  22759946.641    22759946.211    22759947.621
        45.000          41.0004
 117587620.703 7  91626733.26346  22376178.188    22376178.224    22376182.895
        43.000          40.0004
 123250272.931 5  95861362.548 3  23097052.123    23097051.553    23096994.199
        35.000          20.000
 120320150.027 6  93582371.192 6  22484694.568    22484695.165    22484699.207
        41.000          40.000
 119328633.065 7  92811192.503 6  22354272.274    22354271.626    22354276.260
        43.000          38.000
 126898396.167 5  98881874.09542  24147958.109    24147957.628    24147961.143
        34.000          14.0004
 125957709.172 6  98148885.51644  23968955.087    23968953.896    23968960.102
        38.000          28.0004
 116631684.750 7  90713559.741 3  21879805.499    21879806.020    21879819.013
        44.000          20.000
 133142972.397 5 103747782.27144  25336262.426    25336261.567    25336268.421
        33.000          25.0004
 22  1  4  8 18 30.0000000  0 15R09G16G09G04R08G26G07G27R06R17R18G20
                                G08R10G30
 103455695.574 8  80465572.870 8  19373928.005    19373928.370    19373930.636
        52.000          49.000
 109230674.081 8  85114824.66746  20785906.144    20785905.425    20785906.747
        49.000          40.0004
 109219483.767 8  85106104.85648  20783776.422    20783776.136    20783779.529
        51.000          53.0004
 111984910.552 8  87260983.04346  21310019.455    21310019.605    21310022.506
        48.000          36.0004
 111654820.369 7  86842665.412 7  20850749.326    20850749.564    20850752.620
